,City,Lat,Long,Max Temp,Humidity,Cloudiness,Wind Speed,Country,Date
0,Ushuaia,-54.8,-68.3,39.43,85,48,4.74,AR,1603927261
1,Punta Arenas,-53.15,-70.92,48.0,66,89,25.99,CL,1603927812
2,East London,-33.02,27.91,67.84,84,97,1.7,ZA,1603927813
3,Doctor Arroyo,23.67,-100.18,73.65,23,0,5.44,MX,1603927813
4,Berbera,10.44,45.01,80.15,64,9,5.97,SO,1603927813
5,New Norfolk,-42.78,147.06,64.0,56,5,1.99,AU,1603927813
6,Atuona,-9.8,-139.03,77.72,75,52,12.64,PF,1603927813
7,Tazovsky,67.47,78.7,-3.35,87,0,5.97,RU,1603927813
8,Henties Bay,-22.12,14.28,57.99,89,32,3.0,NA,1603927814
9,Fairbanks,64.84,-147.72,19.99,86,61,2.55,US,1603927800
10,Ouidah,6.36,2.09,79.12,85,34,11.12,BJ,1603927815
11,Busselton,-33.65,115.33,64.99,45,0,11.99,AU,1603927815
12,Arraial do Cabo,-22.97,-42.03,75.16,93,0,13.15,BR,1603927815
13,Abu Samrah,35.3,37.18,64.58,62,81,4.18,SY,1603927815
14,Lac du Bonnet,50.25,-96.06,27.0,98,42,3.0,CA,1603927816
15,Pangnirtung,66.15,-65.71,8.94,79,30,4.65,CA,1603927816
16,Camopi,3.17,-52.32,79.83,74,60,5.61,GF,1603927817
17,Hermanus,-34.42,19.23,63.0,64,87,3.0,ZA,1603927817
18,Albany,42.6,-73.97,48.0,89,49,4.23,US,1603927808
19,Pemangkat,1.17,108.97,79.7,84,39,5.5,ID,1603927817
20,Provideniya,64.38,-173.3,26.8,89,74,2.1,RU,1603927818
21,Manokwari,-0.87,134.08,84.29,64,100,2.66,ID,1603927818
22,Mataura,-46.19,168.86,57.0,77,96,5.99,NZ,1603927818
23,Forsytheganj,52.63,29.73,43.99,82,27,6.26,BY,1603927819
24,Isangel,-19.55,169.27,78.85,62,15,16.37,VU,1603927819
25,Yellowknife,62.46,-114.35,23.0,96,96,4.45,CA,1603927531
26,Barrow,71.29,-156.79,24.8,58,90,6.93,US,1603927802
27,Rawson,-43.3,-65.1,49.51,54,18,8.01,AR,1603927820
28,Kanniyākumāri,8.08,77.57,79.3,77,61,4.9,IN,1603927820
29,Bartica,6.4,-58.62,75.92,94,48,3.69,GY,1603927820
30,Ola,59.58,151.28,30.61,86,85,5.7,RU,1603927820
31,Lebu,-37.62,-73.65,49.77,72,16,19.77,CL,1603927821
32,Tiksi,71.69,128.87,-0.04,89,99,15.52,RU,1603927821
33,Laas,46.62,10.7,43.0,100,76,1.88,IT,1603927821
34,Aswān,24.09,32.91,78.35,21,0,8.72,EG,1603927821
35,Yerbogachën,61.28,108.01,17.55,86,100,15.3,RU,1603927821
36,Jamestown,42.1,-79.24,45.0,86,62,5.5,US,1603927821
37,San Mateo Ixtatán,15.83,-91.48,54.37,100,87,0.69,GT,1603927822
38,Myaundzha,63.05,147.19,6.94,84,25,1.05,RU,1603927822
39,Butaritari,3.07,172.79,81.32,71,100,3.53,KI,1603927822
40,Fukuechō,32.69,128.84,68.67,57,60,9.55,JP,1603927822
41,Saldanha,-33.01,17.94,59.0,87,100,10.29,ZA,1603927822
42,Qaqortoq,60.72,-46.03,31.64,93,100,5.19,GL,1603927823
43,Borogontsy,62.67,131.17,2.16,92,100,5.08,RU,1603927823
44,Qaanaaq,77.48,-69.36,7.52,73,9,11.21,GL,1603927823
45,Lázaro Cárdenas,17.96,-102.2,81.73,81,18,5.91,MX,1603927823
46,Cape Town,-33.93,18.42,60.01,82,75,19.46,ZA,1603927824
47,São Filipe,14.9,-24.5,80.26,75,26,2.39,CV,1603927824
48,Broome,42.25,-75.83,46.0,97,56,1.01,US,1603927824
49,Serramanna,39.42,8.92,59.0,74,44,1.01,IT,1603927824
50,Meulaboh,4.14,96.13,76.12,83,100,4.16,ID,1603927825
51,Camacupa,-12.02,17.48,63.91,93,100,5.55,AO,1603927825
52,Trincomalee,8.57,81.23,78.3,82,44,9.84,LK,1603927825
53,Isla Vista,34.41,-119.86,71.01,55,0,3.0,US,1603927825
54,Morondava,-20.28,44.28,77.63,78,0,1.9,MG,1603927826
55,Port Elizabeth,-33.92,25.57,64.4,88,90,11.41,ZA,1603927826
56,Upata,8.01,-62.4,87.01,64,56,4.94,VE,1603927827
57,Hithadhoo,-0.6,73.08,83.1,74,3,11.88,MV,1603927827
58,Bluff,-46.6,168.33,55.99,76,100,7.0,NZ,1603927762
59,Puerto Ayora,-0.74,-90.35,69.01,92,97,1.99,EC,1603927536
60,Rocha,-34.48,-54.33,56.08,74,88,13.44,UY,1603927828
61,Hilo,19.73,-155.09,82.99,82,47,1.99,US,1603927828
62,Puerto Cabezas,14.04,-83.39,79.57,87,97,6.64,NI,1603927809
63,Neyshabur,36.21,58.8,42.22,61,0,1.7,IR,1603927828
64,Upernavik,72.79,-56.15,12.15,83,18,11.03,GL,1603927829
65,Tanout,14.97,8.89,79.32,17,0,9.98,NE,1603927829
66,Rikitea,-23.12,-134.97,74.93,82,71,12.3,PF,1603927376
67,Benjamín Aceval,-24.97,-57.57,77.85,41,35,5.55,PY,1603927830
68,Makakilo City,21.35,-158.09,84.0,62,8,11.99,US,1603927830
69,Tasiilaq,65.61,-37.64,26.26,86,100,10.74,GL,1603927830
70,Khatanga,71.97,102.5,-1.08,86,0,6.8,RU,1603927830
71,Mahébourg,-20.41,57.7,71.01,75,80,3.0,MU,1603927831
72,Kapaa,22.08,-159.32,78.01,69,28,9.26,US,1603927756
73,Chui,-33.7,-53.46,57.24,82,89,11.99,UY,1603927831
74,Malchevskaya,49.06,40.36,40.33,68,0,12.15,RU,1603927831
75,Santa Rosa,14.31,121.11,78.01,94,100,2.1,PH,1603927831
76,Maracaibo,10.63,-71.64,83.14,73,44,9.8,VE,1603927831
77,Evensk,61.95,159.23,25.79,79,0,5.5,RU,1603927832
78,Guarapari,-20.67,-40.5,82.0,87,7,11.01,BR,1603927832
79,Guerrero Negro,27.98,-114.06,70.92,39,0,13.91,MX,1603927832
80,Tessalit,20.2,1.01,76.21,18,0,8.5,ML,1603927832
81,Ponta do Sol,32.67,-17.1,64.0,64,92,1.99,PT,1603927833
82,Alyangula,-13.85,136.42,86.58,50,4,9.95,AU,1603927833
83,Ostrovnoy,68.05,39.51,37.04,88,74,16.73,RU,1603927834
84,Pomabamba,-8.83,-77.47,55.4,64,81,7.27,PE,1603927834
85,Amudat,1.95,34.95,71.02,69,33,5.17,UG,1603927834
86,Ilulissat,69.22,-51.1,11.91,88,100,4.74,GL,1603927834
87,Cananéia,-25.01,-47.93,71.26,83,0,3.06,BR,1603927835
88,Ribeira Grande,38.52,-28.7,66.92,85,4,19.57,PT,1603927835
89,Kavaratti,10.57,72.64,81.41,75,0,6.35,IN,1603927835
90,Pringsewu,-5.36,104.97,77.05,83,81,2.3,ID,1603927835
91,Oodweyne,9.41,45.06,66.06,44,1,1.19,SO,1603927835
92,Poum,-20.23,164.02,77.29,74,1,22.37,NC,1603927836
93,Pisco,-13.7,-76.22,63.0,85,27,13.0,PE,1603927836
94,St. George's,12.06,-61.75,81.34,84,100,14.58,GD,1603927836
95,Hokitika,-42.72,170.97,59.65,88,100,4.29,NZ,1603927836
96,Norman Wells,65.28,-126.83,20.21,95,93,3.38,CA,1603927376
97,Jiuquan,39.74,98.52,33.22,84,0,2.37,CN,1603927837
98,Esperance,-33.87,121.9,60.13,58,0,11.12,AU,1603927837
99,Oleksandrivka,46.84,32.76,51.67,82,53,6.85,UA,1603927837
100,Vardø,70.37,31.11,39.96,80,88,15.64,NO,1603927837
101,Gilbués,-9.83,-45.34,79.12,64,98,2.42,BR,1603927838
102,Vaini,-21.2,-175.2,73.26,72,0,20.07,TO,1603927376
103,Krasnosel'kup,65.7,82.47,-0.65,91,0,11.14,RU,1603927838
104,Hobart,-42.88,147.33,64.0,60,8,2.24,AU,1603927358
105,Chokurdakh,70.63,147.92,-5.12,91,43,7.36,RU,1603927376
106,Kununurra,-15.77,128.73,91.53,41,52,5.59,AU,1603927838
107,Ulaanbaatar,47.91,106.88,29.57,77,0,4.23,MN,1603927839
108,Hamilton,39.18,-84.53,53.01,86,100,1.01,US,1603927784
109,Jambi City,-1.6,103.62,75.15,92,100,3.53,ID,1603927839
110,Los Llanos de Aridane,28.66,-17.92,61.0,78,29,9.75,ES,1603927655
111,Hadejia,12.45,10.04,79.23,20,0,8.77,NG,1603927839
112,Bethel,41.37,-73.41,51.01,95,94,4.5,US,1603927840
113,Bathsheba,13.22,-59.52,81.5,81,100,22.15,BB,1603927840
114,Teeli,51.03,90.23,24.06,91,39,0.58,RU,1603927840
115,Bredasdorp,-34.53,20.04,64.4,55,100,8.05,ZA,1603927840
116,Praia,14.92,-23.51,79.16,85,77,10.16,CV,1603927841
117,Wajima,37.4,136.9,57.9,50,18,9.13,JP,1603927841
118,Cidreira,-30.18,-50.21,65.98,87,4,5.53,BR,1603927841
119,Winnipeg,49.88,-97.15,26.01,68,75,8.99,CA,1603927573
120,Dikson,73.51,80.55,3.06,90,1,22.59,RU,1603927841
121,Moussoro,13.64,16.49,84.24,16,0,12.66,TD,1603927842
122,Mount Gambier,-37.83,140.77,48.87,98,100,3.27,AU,1603927842
123,Tuktoyaktuk,69.45,-133.04,20.48,96,99,19.89,CA,1603927790
124,Eureka,40.8,-124.16,68.0,60,0,3.62,US,1603927719
125,Castro,-24.79,-50.01,63.1,51,0,2.04,BR,1603927842
126,Koutiala,12.39,-5.46,77.47,18,16,6.8,ML,1603927843
127,Shingū,33.73,135.98,65.3,62,2,2.89,JP,1603927843
128,Yuli,9.7,10.27,77.86,31,32,3.13,NG,1603927843
129,Saint-Philippe,-21.36,55.77,60.01,92,96,1.99,RE,1603927843
130,Port Alfred,-33.59,26.89,66.61,84,95,5.28,ZA,1603927843
131,Geraldton,-28.77,114.6,74.3,43,0,13.62,AU,1603927844
132,Ust'-Ilimsk,58.0,102.66,32.4,97,100,7.2,RU,1603927844
133,Sitka,57.05,-135.33,45.95,71,33,3.78,US,1603927844
134,George Town,5.41,100.34,78.01,94,100,5.01,MY,1603927844
135,Grindavik,63.84,-22.43,46.4,42,0,20.8,IS,1603927844
136,Antofagasta,-23.65,-70.4,57.88,77,38,5.66,CL,1603927734
137,Bridlington,54.08,-0.19,45.0,83,79,10.0,GB,1603927844
138,Guánica,17.97,-66.91,77.0,89,14,5.95,PR,1603927845
139,Avarua,-21.21,-159.78,72.68,81,40,17.45,CK,1603927845
140,Talnakh,69.49,88.4,-0.65,75,0,6.35,RU,1603927845
141,Kaitangata,-46.28,169.85,51.01,85,100,1.99,NZ,1603927846
142,Russell,32.35,-85.2,77.0,91,98,7.49,US,1603927846
143,Vila Franca do Campo,37.72,-25.43,66.0,75,35,7.99,PT,1603927846
144,Soyo,-6.13,12.37,76.78,86,99,5.64,AO,1603927846
145,Kahului,20.89,-156.47,82.99,74,14,4.0,US,1603927606
146,Halesowen,52.45,-2.05,44.01,91,5,1.01,GB,1603927817
147,Portales,34.19,-103.33,36.0,89,92,11.99,US,1603927847
148,Dillon,34.42,-79.37,73.99,94,91,6.6,US,1603927847
149,Nouadhibou,20.93,-17.03,73.99,63,100,17.11,MR,1603927848
150,Port Lincoln,-34.73,135.87,61.32,69,66,21.21,AU,1603927848
151,Coquimbo,-29.95,-71.34,56.77,69,0,4.79,CL,1603927848
152,Goderich,43.75,-81.72,51.01,63,27,18.07,CA,1603927849
153,Mabamba,-3.6,30.5,66.06,88,87,2.13,TZ,1603927849
154,Mājalgaon,19.15,76.23,66.76,60,4,3.56,IN,1603927849
155,Marsá Maţrūḩ,31.35,27.25,72.68,57,0,12.3,EG,1603927849
156,Talcahuano,-36.72,-73.12,54.37,68,16,15.41,CL,1603927850
157,Manakara,-22.13,48.02,70.77,89,17,5.91,MG,1603927850
158,Kieta,-6.22,155.63,86.0,65,100,2.77,PG,1603927850
159,Bonfim,3.08,-59.95,85.24,59,100,3.6,BR,1603927850
160,Hong Kong,22.29,114.16,75.99,72,100,1.99,HK,1603927762
161,Saint Paul Harbor,57.79,-152.41,40.62,69,59,4.45,US,1603927851
162,Bengkulu,-3.8,102.27,76.6,81,100,3.51,ID,1603927851
163,Leominster,42.53,-71.76,45.0,100,90,5.37,US,1603927851
164,Roald,62.58,6.13,48.99,72,98,5.99,NO,1603927851
165,Pak Phanang,8.35,100.2,78.94,80,100,8.72,TH,1603927851
166,Panguna,-6.32,155.48,81.03,74,100,1.01,PG,1603927851
167,Vila Velha,-20.33,-40.29,82.0,87,65,11.01,BR,1603927851
168,Tura,25.52,90.22,70.05,90,0,4.0,IN,1603927852
169,Udachny,66.42,112.4,-13.7,88,0,0.65,RU,1603927852
170,Lakatoro,-16.1,167.42,81.59,66,17,15.39,VU,1603927852
171,Grand Gaube,-20.01,57.66,71.01,75,44,3.0,MU,1603927853
172,Ancud,-41.87,-73.82,51.01,89,81,7.0,CL,1603927853
173,Dakar,14.69,-17.44,85.33,54,3,11.03,SN,1603927853
174,Baghdad,33.34,44.4,68.95,22,18,5.53,IQ,1603927668
175,Vilyuysk,63.76,121.62,-5.48,91,37,2.84,RU,1603927853
176,Caravelas,-17.71,-39.25,78.4,83,100,13.38,BR,1603927854
177,Zyryanka,65.75,150.85,5.59,93,89,0.89,RU,1603927854
178,Gachsaran,30.36,50.8,59.0,28,0,3.0,IR,1603927854
179,Aykhal,66.0,111.5,-8.19,88,0,2.73,RU,1603927854
180,Sulangan,11.14,123.72,83.41,77,71,12.5,PH,1603927854
181,Haines Junction,60.75,-137.51,30.09,93,99,2.21,CA,1603927855
182,Nantucket,41.28,-70.1,55.99,95,94,11.01,US,1603927575
183,Mar del Plata,-38.0,-57.56,57.0,61,100,5.99,AR,1603927754
184,Carnarvon,-24.87,113.63,74.75,54,0,11.65,AU,1603927855
185,Cherskiy,68.75,161.3,5.81,94,98,4.5,RU,1603927855
186,San Policarpo,12.18,125.51,83.19,78,82,10.94,PH,1603927856
187,Klaksvík,62.23,-6.59,47.97,81,94,16.11,FO,1603927856
188,Kainantu,-6.29,145.87,67.82,83,100,1.7,PG,1603927856
189,Derzhavīnsk,51.1,66.32,32.09,90,85,10.94,KZ,1603927857
190,Thompson,55.74,-97.86,13.96,88,64,4.81,CA,1603927857
191,Oudtshoorn,-33.59,22.2,59.0,93,97,8.05,ZA,1603927857
192,São João da Barra,-21.64,-41.05,77.13,89,3,20.65,BR,1603927857
193,Nikolskoye,59.7,30.79,44.01,99,65,8.21,RU,1603927857
194,Lorengau,-2.02,147.27,85.93,63,53,2.71,PG,1603927858
195,San Andrés,12.58,-81.7,83.1,79,82,11.05,CO,1603927858
196,Bahía Solano,6.23,-77.4,78.01,85,100,9.86,CO,1603927858
197,Katherine,-14.47,132.27,89.55,41,60,4.7,AU,1603927859
198,Fare,-16.7,-151.02,80.76,79,35,15.84,PF,1603927859
199,Ust-Tsilma,65.44,52.15,42.26,90,100,17.0,RU,1603927859
200,Mahanoro,-19.9,48.8,70.99,89,5,5.5,MG,1603927859
201,Saskylakh,71.92,114.08,2.7,90,97,9.93,RU,1603927844
202,Clyde River,70.47,-68.59,14.61,89,96,6.11,CA,1603927860
203,Makariv,50.46,29.81,45.0,60,0,4.9,UA,1603927860
204,Half Moon Bay,37.46,-122.43,75.0,22,0,5.37,US,1603927647
205,Biu,10.61,12.19,73.31,26,31,5.21,NG,1603927861
206,Miranda,3.25,-76.23,75.2,64,75,3.36,CO,1603927861
207,Muros,42.78,-9.06,55.0,94,7,3.0,ES,1603927861
208,Kruisfontein,-34.0,24.73,61.0,92,67,1.01,ZA,1603927861
209,Comodoro Rivadavia,-45.87,-67.5,57.81,35,0,8.43,AR,1603927862
210,Trairi,-3.28,-39.27,78.28,81,3,10.78,BR,1603927862
211,Tierralta,8.17,-76.06,76.78,90,99,7.83,CO,1603927862
212,Salima,-13.78,34.46,76.12,60,38,5.48,MW,1603927862
213,Pevek,69.7,170.31,21.31,95,100,16.6,RU,1603927862
214,Emerald,-23.53,148.17,79.0,26,0,11.01,AU,1603927863
215,Vysokogornyy,50.12,139.15,34.47,91,100,4.18,RU,1603927863
216,Manggar,-2.88,108.27,82.71,79,35,8.46,ID,1603927863
217,Acapulco de Juárez,16.86,-99.89,84.0,72,42,7.18,MX,1603927698
218,High Level,58.52,-117.14,28.4,92,90,2.59,CA,1603927863
219,Gorom-Gorom,14.44,-0.24,82.8,14,7,7.74,BF,1603927863
220,Yambio,4.57,28.4,69.1,94,100,1.61,SS,1603927864
221,Waynesville,35.49,-82.99,64.0,95,100,1.01,US,1603927864
222,Inhambane,-23.86,35.38,72.46,88,17,10.63,MZ,1603927864
223,Santa Barbara,34.73,-120.03,81.0,18,0,8.99,US,1603927760
224,Ełk,53.83,22.36,50.13,83,39,5.91,PL,1603927864
225,Kavieng,-2.57,150.8,84.87,65,100,4.34,PG,1603927865
226,Phalaborwa,-23.94,31.14,71.92,34,0,5.93,ZA,1603927865
227,Skegness,53.14,0.34,45.0,85,40,3.0,GB,1603927865
228,Nanortalik,60.14,-45.24,32.76,91,100,14.2,GL,1603927865
229,Mīnāb,27.15,57.08,69.48,21,0,5.82,IR,1603927865
230,Yumbe,3.47,31.25,66.06,94,100,2.55,UG,1603927865
231,Matagami,49.75,-77.63,28.29,98,100,9.73,CA,1603927865
232,Morón,-34.65,-58.62,59.0,88,65,1.99,AR,1603927866
233,Milton,34.13,-84.3,72.0,99,100,1.01,US,1603927805
234,Todos Santos,23.45,-110.22,80.01,67,1,7.0,MX,1603927866
235,Kamina,-8.74,24.99,64.54,95,82,5.1,CD,1603927866
236,Saint George,37.1,-113.58,73.0,12,1,5.82,US,1603927756
237,Mogadishu,2.04,45.34,79.03,82,25,7.4,SO,1603927866
238,Salalah,17.02,54.09,78.06,70,21,2.46,OM,1603927867
239,Dulce Grande,23.0,-102.17,72.25,28,8,10.49,MX,1603927867
240,Severo-Kuril'sk,50.68,156.12,44.6,79,73,8.1,RU,1603927867
241,Houston,29.76,-95.36,55.0,83,60,3.0,US,1603927217
242,Pierre,44.37,-100.35,39.99,100,95,4.0,US,1603927867
243,Brigantine,39.41,-74.36,64.0,92,100,7.0,US,1603927867
244,‘Āhuimanu,21.44,-157.84,84.0,66,12,5.01,US,1603927867
245,Gwanda,-20.93,29.0,69.48,35,0,9.64,ZW,1603927868
246,Astoria,46.19,-123.83,59.0,78,67,3.0,US,1603927868
247,Tukan,53.84,57.46,27.48,91,29,3.04,RU,1603927868
248,Tondano,1.3,124.91,71.06,94,100,2.95,ID,1603927868
249,Lagoa,39.05,-27.98,65.32,78,2,9.82,PT,1603927869
250,Oistins,13.07,-59.53,81.55,81,100,21.79,BB,1603927618
251,Villa Constitución,-33.23,-60.33,57.0,75,47,3.78,AR,1603927869
252,Dingle,11.0,122.67,81.28,83,57,4.03,PH,1603927869
253,Lavrentiya,65.58,-171.0,27.34,86,98,3.2,RU,1603927869
254,Den Helder,52.96,4.76,52.0,81,100,20.0,NL,1603927757
255,Itarema,-2.92,-39.92,78.22,82,9,13.69,BR,1603927869
256,Quelimane,-17.88,36.89,69.19,91,0,2.46,MZ,1603927870
257,Sabha,27.04,14.43,63.63,45,0,15.01,LY,1603927870
258,Ohrid,41.12,20.8,52.2,72,94,4.12,MK,1603927738
259,Maner,25.65,84.88,66.42,44,0,2.89,IN,1603927870
260,Kitimat,54.05,-128.65,46.99,91,100,0.98,CA,1603927871
261,Nouakchott,18.09,-15.98,86.09,28,57,15.64,MR,1603927871
262,Sibu,2.3,111.82,78.01,94,88,5.99,MY,1603927871
263,Faanui,-16.48,-151.75,79.83,80,14,16.98,PF,1603927871
264,Yangi Marg`ilon,40.43,71.72,42.87,56,99,2.04,UZ,1603927871
265,Saint-Pierre,-21.34,55.48,60.01,92,94,1.99,RE,1603927872
266,Kamogawa,35.1,140.1,66.0,57,1,3.0,JP,1603927872
267,Lompoc,34.64,-120.46,80.01,35,0,3.0,US,1603927872
268,Kachug,53.96,105.88,29.71,94,100,2.15,RU,1603927872
269,Inírida,3.87,-67.92,77.47,93,99,1.74,CO,1603927872
270,Pochutla,15.74,-96.47,81.0,85,77,3.04,MX,1603927872
271,Nuevo Progreso,23.17,-97.95,64.99,69,45,3.0,MX,1603927873
272,Kaniama,-7.57,24.18,66.6,96,86,2.77,CD,1603927873
273,Saint-Joseph,-21.37,55.62,60.01,92,95,1.99,RE,1603927873
274,Narsaq,60.92,-46.05,32.09,89,100,1.99,GL,1603927873
275,Batasan,12.77,120.78,82.65,73,62,2.57,PH,1603927874
276,Vrede,-27.43,29.17,61.32,72,75,3.36,ZA,1603927874
277,Moose Factory,51.26,-80.61,26.08,92,86,8.05,CA,1603927874
278,Bambous Virieux,-20.34,57.76,71.01,75,73,3.0,MU,1603927874
279,Chimbote,-9.09,-78.58,62.69,85,22,6.96,PE,1603927874
280,Hasaki,35.73,140.83,59.0,91,16,8.01,JP,1603927377
281,Stephenville,32.22,-98.2,48.0,67,0,5.01,US,1603927874
282,Meppen,52.69,7.29,50.0,97,98,1.01,DE,1603927875
283,Lapeer,43.05,-83.32,46.0,72,42,8.72,US,1603927812
284,Fuerte Olimpo,-21.04,-57.87,83.37,66,18,7.74,PY,1603927875
285,Ikalamavony,-21.15,46.58,63.64,71,16,9.28,MG,1603927875
286,Umluj,25.02,37.27,86.11,23,0,16.02,SA,1603927875
287,Grenå,56.42,10.88,48.0,93,59,18.43,DK,1603927875
288,Lethem,3.38,-59.8,85.95,57,94,5.79,GY,1603927876
289,Walvis Bay,-22.96,14.51,57.99,89,40,3.0,NA,1603927876
290,La Ronge,55.1,-105.28,25.18,96,97,2.8,CA,1603927876
291,Susaki,33.37,133.28,66.33,56,27,2.28,JP,1603927876
292,Airai,-8.93,125.41,71.69,58,52,2.48,TL,1603927877
293,Cap Malheureux,-19.98,57.61,71.01,75,45,3.0,MU,1603927877
294,Karak,31.17,35.75,56.23,86,72,2.19,JO,1603927877
295,Griffith,41.53,-87.42,46.0,68,91,4.03,US,1603927584
296,Ginir,7.13,40.7,54.32,82,14,4.72,ET,1603927877
297,Vostok,46.49,135.88,28.96,99,100,7.0,RU,1603927878
298,San Patricio,28.02,-97.52,64.99,45,0,3.0,US,1603927878
299,Alofi,-19.06,-169.92,73.74,79,19,23.85,NU,1603927878
300,Tripoli,32.88,13.19,69.24,55,22,11.27,LY,1603927651
301,Tommot,58.96,126.29,8.65,93,86,1.25,RU,1603927878
302,Payo,-3.75,103.64,74.75,91,100,1.5,ID,1603927879
303,Diamantino,-14.41,-56.45,77.29,85,99,6.49,BR,1603927879
304,San Cosme y Damián,-27.32,-56.35,72.82,62,0,10.87,PY,1603927879
305,Langsa,4.47,97.97,76.66,92,100,1.95,ID,1603927879
306,Sakakah,29.97,40.21,61.02,30,0,2.37,SA,1603927880
307,Businga,3.33,20.88,71.71,97,100,0.29,CD,1603927880
308,Tevriz,57.51,72.4,22.06,97,99,2.89,RU,1603927880
309,Qui Nhon,13.77,109.23,75.97,78,56,2.04,VN,1603927649
310,Changping,40.22,116.22,55.99,41,100,1.72,CN,1603927880
311,Pakxan,18.38,103.66,73.85,74,100,3.22,LA,1603927881
312,Karīmganj,24.87,92.35,72.16,89,2,2.57,IN,1603927881
313,Torbay,47.67,-52.73,35.01,87,97,4.41,CA,1603927839
314,Cockburn Town,21.46,-71.14,82.45,76,1,21.43,TC,1603927882
315,Baoro,5.67,15.97,68.14,88,15,1.77,CF,1603927882
316,Ixtapa,20.7,-105.2,79.75,81,27,1.99,MX,1603927882
317,Isnos,1.94,-76.24,61.11,90,100,2.08,CO,1603927882
318,Amalāpuram,16.58,82.02,72.57,78,75,4.14,IN,1603927883
319,Kudahuvadhoo,2.67,72.89,82.49,77,77,12.46,MV,1603927883
320,Międzyrzecz,52.44,15.58,48.0,41,89,9.28,PL,1603927883
321,Togur,58.36,82.83,13.08,94,100,12.1,RU,1603927883
322,Eirunepé,-6.66,-69.87,82.2,72,83,2.75,BR,1603927883
323,Hofn,64.25,-15.21,43.47,82,98,24.83,IS,1603927884
324,Alexandria,31.22,29.96,72.07,68,0,6.15,EG,1603927884
325,Leningradskiy,69.38,178.42,19.15,91,95,10.16,RU,1603927884
326,Filipeni,46.53,27.18,54.0,94,100,7.0,RO,1603927884
327,Shuiji,27.42,118.34,67.12,77,100,1.66,CN,1603927884
328,Shestakovo,56.49,103.96,33.6,92,100,8.9,RU,1603927884
329,Emba,48.83,58.14,35.11,77,0,3.42,KZ,1603927885
330,Fuerte,17.54,120.36,80.28,78,100,3.31,PH,1603927885
331,Toora-Khem,52.47,96.11,26.67,92,39,1.41,RU,1603927885
332,Urubichá,-15.38,-62.95,84.38,54,41,3.67,BO,1603927886
333,Cashel,52.52,-7.89,46.0,87,86,1.99,IE,1603927886
334,Flinders,-34.58,150.86,64.0,91,93,1.01,AU,1603927886
335,Diego de Almagro,-26.37,-70.05,54.23,42,0,1.59,CL,1603927886
336,Awjilah,29.11,21.29,63.28,69,0,7.7,LY,1603927886
337,Noshiro,40.2,140.02,52.92,67,40,18.95,JP,1603927887
338,Okhotsk,59.38,143.3,28.45,89,99,9.19,RU,1603927887
339,The Valley,18.22,-63.06,81.0,84,35,11.01,AI,1603927888
340,Juneau,58.3,-134.42,45.0,100,100,3.65,US,1603927879
341,Kendari,-3.94,122.5,83.97,66,37,4.59,ID,1603927888
342,Zhangye,38.93,100.45,44.26,47,0,7.07,CN,1603927888
343,Samarai,-10.62,150.67,82.42,73,78,4.23,PG,1603927888
344,Kiryat Gat,31.61,34.76,75.0,100,92,5.93,IL,1603927888
345,Pitimbu,-7.47,-34.81,77.7,77,97,12.3,BR,1603927888
346,Balkhash,46.84,74.98,31.46,89,90,8.86,KZ,1603927889
347,Lubbock,33.6,-101.83,36.0,88,93,5.01,US,1603927889
348,Cabo Rojo,18.09,-67.15,79.0,97,28,9.71,PR,1603927889
349,Atasū,48.68,71.64,26.31,95,96,7.43,KZ,1603927889
350,Ilo,-17.64,-71.34,61.07,79,61,3.13,PE,1603927889
351,Mahāsamund,21.1,82.1,66.13,74,16,2.13,IN,1603927890
352,Berlevåg,70.86,29.09,37.8,84,97,10.47,NO,1603927890
353,Brønnøysund,65.46,12.2,44.01,75,99,8.99,NO,1603927890
354,Gizo Government Station,-8.1,156.84,84.7,75,92,10.2,SB,1603927890
355,Tanete,-3.94,119.78,85.21,64,37,7.27,ID,1603927890
356,Sobolevo,54.43,31.9,41.56,88,1,7.18,RU,1603927890
357,Abhar,36.15,49.22,49.66,48,82,2.01,IR,1603927891
358,Skibbereen,51.55,-9.27,52.66,81,100,17.13,IE,1603927891
359,Paamiut,61.99,-49.67,27.5,87,92,14.09,GL,1603927891
360,São Lourenço do Sul,-31.37,-51.98,68.0,95,99,2.55,BR,1603927885
361,Crotone,39.09,17.12,62.02,66,5,5.68,IT,1603927891
362,Dzerzhinsk,56.24,43.46,33.01,86,0,8.99,RU,1603927892
363,Nanyang,32.99,112.53,55.94,51,48,4.52,CN,1603927892
364,Great Falls,47.5,-111.3,36.41,98,68,3.67,US,1603927739
365,Salinópolis,-0.61,-47.36,80.82,80,59,12.12,BR,1603927892
366,La Plaine,15.33,-61.25,77.74,84,100,21.12,DM,1603927892
367,Tamworth,52.63,-1.7,45.0,85,8,5.01,GB,1603927893
368,Verkhnyaya Inta,65.98,60.31,37.13,96,100,13.89,RU,1603927893
369,Marsh Harbour,26.54,-77.06,81.21,79,31,15.61,BS,1603927893
370,Camaná,-16.62,-72.71,63.27,76,66,6.26,PE,1603927640
371,Sarandi,-23.44,-51.87,86.0,25,0,3.36,BR,1603927893
372,Itoman,26.12,127.67,73.0,83,26,11.81,JP,1603927894
373,Tsimmerbude,54.67,20.13,46.99,86,100,5.99,RU,1603927894
374,Dunda,-8.12,34.25,66.74,63,87,0.81,TZ,1603927627
375,Paris,48.85,2.35,55.0,83,100,7.0,FR,1603927208
376,Viedma,-40.81,-63.0,50.0,50,55,7.0,AR,1603927826
377,Puksoozero,62.59,40.61,40.84,94,88,8.08,RU,1603927894
378,Lata,40.16,-8.33,57.0,89,0,1.43,PT,1603927895
379,Marrakesh,31.63,-8.01,65.14,41,59,2.13,MA,1603927895
380,Gunjur,13.2,-16.73,82.49,69,0,8.5,GM,1603927895
381,Neuquén,-38.95,-68.06,63.41,27,66,12.01,AR,1603927728
382,Nelson Bay,-32.72,152.15,68.0,92,56,4.0,AU,1603927617
383,Westport,41.14,-73.36,52.0,97,91,7.58,US,1603927896
384,Caçapava do Sul,-30.51,-53.49,61.48,98,7,4.18,BR,1603927896
385,Beringovskiy,63.05,179.32,26.89,92,46,11.74,RU,1603927896
386,Jucás,-6.53,-39.53,86.49,43,84,13.04,BR,1603927896
387,Karaidel',55.83,56.91,29.88,92,4,10.56,RU,1603927896
388,Zanjān,36.67,48.48,52.7,43,83,6.26,IR,1603927896
389,Fort Saint James,54.43,-124.25,36.05,90,100,1.3,CA,1603927897
390,Solnechnyy,50.72,136.63,32.74,93,100,7.23,RU,1603927897
391,Manono,-7.3,27.42,72.48,86,99,1.57,CD,1603927897
392,Along,28.17,94.77,58.98,54,0,1.95,IN,1603927897
393,Katsuura,35.13,140.3,66.0,57,2,3.0,JP,1603927897
394,Cabadiangan,9.75,122.47,82.29,77,25,7.18,PH,1603927897
395,Laguna,38.42,-121.42,78.01,17,1,1.59,US,1603927898
396,Fort Nelson,58.81,-122.7,32.56,89,2,1.43,CA,1603927898
397,Kuching,1.55,110.33,75.0,94,67,1.99,MY,1603927898
398,Kiunga,-6.12,141.29,87.71,59,62,1.05,PG,1603927898
399,Svarstad,59.4,9.97,44.01,1,49,4.32,NO,1603927898
400,Tokur,53.13,132.9,27.34,95,86,2.01,RU,1603927898
401,Port Hardy,50.7,-127.42,53.1,94,100,5.23,CA,1603927899
402,Vao,-22.67,167.48,72.7,74,0,16.08,NC,1603927899
403,Kemijärvi,66.71,27.43,41.52,93,100,7.52,FI,1603927899
404,Pokhvistnevo,53.65,52.13,30.51,93,59,5.08,RU,1603927899
405,Baruun-Urt,46.68,113.28,31.55,72,0,10.25,MN,1603927899
406,Souillac,-20.52,57.52,71.01,75,90,3.0,MU,1603927899
407,Kilrush,52.64,-9.48,46.99,87,100,8.01,IE,1603927900
408,Chadiza,-14.07,32.44,68.23,62,27,4.16,ZM,1603927900
409,Andapa,-14.65,49.65,64.69,88,45,1.86,MG,1603927900
410,São Gabriel da Cachoeira,-0.13,-67.09,77.63,88,92,1.1,BR,1603927900
411,Bochnia,49.97,20.43,48.99,96,73,2.8,PL,1603927900
412,Singapore,1.29,103.85,82.0,88,83,3.0,SG,1603927658
413,Morros,-9.45,-46.3,79.27,67,90,3.11,BR,1603927648
414,São Sebastião,-23.76,-45.41,73.29,76,0,5.88,BR,1603927901
415,Atambua,-9.11,124.89,83.26,59,78,1.83,ID,1603927901
416,Korla,41.76,86.15,43.0,74,55,11.25,CN,1603927901
417,Buraidah,26.33,43.98,60.89,30,0,3.83,SA,1603927901
418,Jinchang,38.5,102.17,39.13,67,0,1.66,CN,1603927901
419,Belaya Gora,68.53,146.42,5.11,94,100,5.73,RU,1603927902
420,Athabasca,54.72,-113.29,34.66,88,0,6.67,CA,1603927805
421,Wajid,3.81,43.25,74.82,81,78,16.04,SO,1603927902
422,Sol'vychegodsk,61.33,46.92,41.72,92,78,8.1,RU,1603927902
423,Manyana,-23.4,21.72,77.58,24,0,15.59,BW,1603927902
424,Taoudenni,22.68,-3.98,81.63,16,37,12.64,ML,1603927902
425,Dicabisagan,17.08,122.42,81.79,75,100,5.44,PH,1603927902
426,Paranapanema,-23.39,-48.72,72.59,38,0,0.69,BR,1603927652
427,Mogwase,-25.18,27.27,72.61,29,0,4.97,ZA,1603927903
428,Thunder Bay,48.4,-89.32,35.01,74,74,4.0,CA,1603927874
429,Bac Lieu,9.29,105.72,78.17,86,100,7.18,VN,1603927850
430,Mersing,2.43,103.84,79.29,84,100,5.08,MY,1603927903
431,San Lazaro,18.04,-88.66,77.95,92,93,4.21,BZ,1603927904
432,Ngunguru,-35.62,174.5,64.58,77,98,11.25,NZ,1603927904
433,Havre-St-Pierre,50.23,-63.6,30.58,91,99,11.05,CA,1603927904
434,Sørland,67.67,12.69,45.1,74,1,15.55,NO,1603927904
435,Maţāy,28.42,30.78,72.18,71,84,15.79,EG,1603927904
436,Mossamedes,-15.2,12.15,69.22,83,90,7.05,AO,1603927751
437,Bandarbeyla,9.49,50.81,77.23,86,17,3.71,SO,1603927905
438,Marawi,8.0,124.29,75.25,79,80,3.47,PH,1603927905
439,Belaguntha,19.88,84.65,68.97,62,9,3.29,IN,1603927905
440,Cherdyn',60.4,56.48,34.3,93,100,8.79,RU,1603927905
441,Ananindeua,-1.37,-48.37,78.4,83,70,8.01,BR,1603927905
442,Eldorado,-23.79,-54.28,73.63,49,0,3.53,BR,1603927905
443,Bom Jesus,-9.07,-44.36,81.12,62,96,1.48,BR,1603927906
444,Chikwawa,-16.03,34.8,75.54,64,19,3.56,MW,1603927906
445,Abu Kamal,34.45,40.92,65.86,25,49,4.56,SY,1603927906
446,Bouca,6.51,18.27,69.71,91,81,1.21,CF,1603927906
447,Vila,42.03,-8.16,46.99,92,8,1.99,PT,1603927906
448,Buala,-8.14,159.59,81.12,82,100,4.29,SB,1603927906
449,Bandon,51.75,-8.74,48.0,92,99,7.0,IE,1603927906
450,Aranos,-24.13,19.12,77.13,34,90,9.42,NA,1603927906
451,Turtas,58.94,69.13,26.74,98,100,7.02,RU,1603927907
452,Nuevitas,21.55,-77.26,80.71,83,9,12.5,CU,1603927907
453,Tiquisio,8.56,-74.27,77.18,92,85,2.24,CO,1603927907
454,Cayenne,4.93,-52.33,81.16,82,31,10.56,GF,1603927805
455,Porto-Novo,6.5,2.6,78.46,86,24,6.38,BJ,1603927907
456,Darnah,32.77,22.64,67.41,66,0,13.58,LY,1603927908
457,Acajutla,13.59,-89.83,75.0,99,88,0.92,SV,1603927908
458,Asău,46.43,26.4,46.99,98,85,4.16,RO,1603927908
459,Xining,36.62,101.77,32.5,78,0,1.68,CN,1603927908
460,Portland,45.52,-122.68,66.0,66,9,1.81,US,1603927505
461,Marsabit,2.33,37.99,63.81,92,74,16.58,KE,1603927909
462,Mnogovershinnyy,53.94,139.92,33.48,91,44,1.3,RU,1603927909
463,Cabedelo,-6.98,-34.83,78.04,77,86,12.91,BR,1603927909
464,Maunabo,18.01,-65.9,81.0,90,28,1.99,PR,1603927909
465,Adrar,20.5,-10.07,78.98,18,0,10.16,MR,1603927909
466,Denpasar,-8.65,115.22,81.63,79,46,8.28,ID,1603927910
467,Buckeye,33.37,-112.58,72.0,21,0,1.01,US,1603927800
468,Snezhnogorsk,69.19,33.25,36.45,96,85,11.36,RU,1603927910
469,Iqaluit,63.75,-68.51,10.09,91,53,3.71,CA,1603927910
470,Bonthe,7.53,-12.51,79.21,86,58,6.78,SL,1603927910
471,Maragogi,-9.01,-35.22,76.06,80,99,10.13,BR,1603927910
472,Moyale,3.52,39.06,67.89,89,81,4.85,KE,1603927910
473,Nagrām,26.62,81.13,66.7,42,0,2.89,IN,1603927911
474,Penzance,50.12,-5.54,48.99,100,100,1.99,GB,1603927911
475,Trat,12.5,102.5,74.26,92,100,0.96,TH,1603927911
476,El Rosario,24.26,-107.18,80.01,52,0,8.99,MX,1603927911
477,Zhangjiakou,40.81,114.88,43.43,50,100,0.83,CN,1603927911
478,Dossor,47.53,52.98,38.26,70,68,12.39,KZ,1603927912
479,Hermiston,45.84,-119.29,62.01,50,15,2.26,US,1603927912
480,Mānsa,29.98,75.38,62.92,29,0,2.06,IN,1603927912
481,San Rafael,-34.62,-68.33,64.02,29,0,9.06,AR,1603927912
482,Jacareacanga,-6.22,-57.75,79.65,75,85,1.74,BR,1603927913
483,Tilichiki,60.47,166.1,25.23,88,0,5.99,RU,1603927913
484,Houndé,11.5,-3.52,77.58,20,0,1.95,BF,1603927913
485,Río Gallegos,-51.62,-69.22,48.56,60,45,34.49,AR,1603927887
486,Charagua,-19.8,-63.22,75.63,65,11,4.56,BO,1603927913
487,Rabo de Peixe,37.8,-25.58,66.0,75,16,9.55,PT,1603927913
488,Sīwah,29.2,25.52,68.86,42,0,5.86,EG,1603927913
489,Erenhot,43.65,111.98,39.51,55,100,7.83,CN,1603927914
490,Margate,51.38,1.39,51.01,78,55,4.0,GB,1603927914
491,Caxito,-8.58,13.66,76.35,83,56,3.15,AO,1603927914
492,Kandi,11.13,2.94,75.61,36,53,2.89,BJ,1603927914
493,Suez,29.97,32.53,70.81,82,69,10.09,EG,1603927914
494,Viişoara,46.55,23.92,48.0,100,73,4.0,RO,1603927914
495,Kortkeros,61.81,51.58,41.32,92,98,11.5,RU,1603927915
496,Padang,-0.95,100.35,79.11,66,100,3.0,ID,1603927915
497,Cabrobó,-8.51,-39.31,86.09,50,100,11.7,BR,1603927915
498,Tabou,4.42,-7.35,77.56,88,52,5.75,CI,1603927915
499,Worland,44.02,-107.96,34.0,78,80,4.0,US,1603927757
500,Djenné,13.91,-4.55,78.96,16,4,5.08,ML,1603927915
501,Aklavik,68.22,-135.01,17.53,88,68,6.15,CA,1603927915
502,Sur,22.57,59.53,69.82,61,0,4.36,OM,1603927915
503,Odienné,9.51,-7.57,72.97,52,0,0.67,CI,1603927915
504,La Libertad,-2.23,-80.9,70.48,84,59,11.14,EC,1603927916
505,Ongandjera,-17.88,15.07,66.07,33,30,5.46,NA,1603927916
506,Newton Stewart,54.96,-4.48,46.02,82,68,12.93,GB,1603927916
507,Ryl'sk,51.57,34.68,41.11,93,0,6.71,RU,1603927916
508,Ambanja,-13.68,48.45,73.15,85,23,2.77,MG,1603927916
509,Sturgeon Bay,44.83,-87.38,46.99,64,91,17.49,US,1603927916
510,Vestmanna,62.16,-7.17,44.96,87,94,11.61,FO,1603927917
511,Santa Maria da Vitória,-13.39,-44.19,74.5,80,75,4.5,BR,1603927917
512,Taldan,53.67,124.8,15.22,93,46,3.74,RU,1603927917
513,Presidencia Roque Sáenz Peña,-26.79,-60.44,76.08,52,7,7.27,AR,1603927917
514,Sawtell,-30.38,153.1,64.0,98,73,2.51,AU,1603927918
515,Straumen,63.87,11.3,45.0,75,63,2.15,NO,1603927918
516,Iquique,-20.22,-70.14,59.58,71,23,2.04,CL,1603927918
517,General Roca,-39.03,-67.58,61.66,28,57,10.27,AR,1603927918
518,Zhangaözen,43.3,52.8,40.57,64,25,19.77,KZ,1603927918
519,Karratha,-20.74,116.85,74.57,78,0,5.46,AU,1603927790
520,Bouna,9.27,-3.0,75.63,47,5,1.57,CI,1603927918
521,Codrington,-38.27,141.97,57.99,74,70,5.99,AU,1603927918
522,Nha Trang,12.25,109.18,76.8,72,99,2.1,VN,1603927814
523,Faya,18.39,42.45,50.31,45,0,5.57,SA,1603927919
524,Micheweni,-4.97,39.83,76.5,83,19,8.88,TZ,1603927919
525,Baykit,61.67,96.37,24.75,96,98,3.65,RU,1603927919
526,Hervey Bay,-25.3,152.85,82.99,55,0,8.99,AU,1603927919
527,Road Town,18.42,-64.62,79.0,93,29,4.0,VG,1603927919
528,Burnie,-41.07,145.92,55.63,66,26,9.6,AU,1603927893
529,Puerto Vallarta,20.62,-105.23,80.04,79,39,2.13,MX,1603927920
530,Camacha,33.08,-16.33,55.99,96,69,8.66,PT,1603927920
531,Khasan,42.43,130.64,42.93,58,0,18.59,RU,1603927920
532,Shache,38.42,77.24,40.46,59,100,1.1,CN,1603927920
533,Waingapu,-9.66,120.26,84.69,67,2,9.44,ID,1603927920
534,Southbridge,42.08,-72.03,48.99,99,89,4.12,US,1603927892
535,Longyearbyen,78.22,15.64,21.74,94,99,5.82,SJ,1603927920
536,Katobu,-4.94,122.53,85.59,58,68,3.85,ID,1603927920
537,Lakes Entrance,-37.88,147.98,66.0,67,4,1.99,AU,1603927921
538,Biltine,14.53,20.92,81.01,20,0,7.63,TD,1603927921
539,Muisne,0.6,-80.03,75.31,83,60,9.91,EC,1603927921
540,Ben Gardane,33.14,11.22,65.43,46,0,6.76,TN,1603927921
541,Mayya,61.73,130.28,4.35,91,100,6.2,RU,1603927921
542,Luebo,-5.35,21.42,69.8,94,91,1.72,CD,1603927921
543,Farah,32.5,62.5,40.28,67,0,5.14,AF,1603927921
544,Sargatskoye,55.61,73.5,22.46,97,89,5.5,RU,1603927921
545,Lüshunkou,38.8,121.27,56.32,36,21,3.42,CN,1603927922
546,Khani,41.96,42.96,61.41,32,38,5.95,GE,1603927922
547,Bestöbe,52.5,73.1,29.5,93,96,10.96,KZ,1603927922
548,Manjacaze,-24.71,33.88,67.24,95,0,7.2,MZ,1603927922
549,Prince Rupert,54.32,-130.32,44.6,81,100,9.17,CA,1603927853
550,Olafsvik,64.89,-23.71,42.37,71,14,26.46,IS,1603927922
551,Valença,-13.37,-39.07,75.76,93,100,4.34,BR,1603927759
552,Zell am See,47.33,12.79,39.99,92,66,2.68,AT,1603927922
